[{"id": "4LPF1T64uLpwL6z4_ITJgQ", "name": "Havana Coffee Bar", "image_url": "https://s3-media1.fl.yelpcdn.com/bphoto/lkZCaOjdx-XL3HidSEA03g/o.jpg", "yelp_url": "https://www.yelp.com/biz/havana-coffee-bar-toronto?adjust_creative=dWJeA2crTuyuRlT4LXbwew&utm_campaign=yelp_api_v3&utm_medium=api_v3_business_lookup&utm_source=dWJeA2crTuyuRlT4LXbwew", "phone": "+14169681097", "categories": [{"alias": "coffee", "title": "Coffee & Tea"}], "street_address": "233 Davenport Road", "city": "Toronto", "postal_code": "M5R 1J9", "country": "CA", "province": "ON", "latitude": 43.6745, "longitude": -79.3966, "price": "$", "url": "havanacoffeebar.com"}, {"id": "a1WWhLOWUC3wZLhkXdAIJQ", "name": "French Made", "image_url": "https://s3-media2.fl.yelpcdn.com/bphoto/cBPX8A4apGZuwg7_byMPAg/o.jpg", "yelp_url": "https://www.yelp.com/raq/a1WWhLOWUC3wZLhkXdAIJQ?adjust_creative=dWJeA2crTuyuRlT4LXbwew&utm_campaign=yelp_api_v3&utm_medium=api_v3_business_lookup&utm_source=dWJeA2crTuyuRlT4LXbwew#popup%3Araq", "phone": "+14378005936", "categories": [{"alias": "cafes", "title": "Cafes"}, {"alias": "bakeries", "title": "Bakeries"}, {"alias": "desserts", "title": "Desserts"}], "street_address": "80 Blue Jays Way", "city": "Toronto", "postal_code": "M5V 2G3", "country": "CA", "province": "ON", "latitude": 43.6453442786002, "longitude": -79.392253737767, "price": "$$", "url": "frenchmadetoronto.com"}, {"id": "axMME38mU9sHuZL8EfZn8w", "name": "B\u00fcro 53", "image_url": "https://s3-media4.fl.yelpcdn.com/bphoto/4bLDXYkvWH0vARVO-dA78A/o.jpg", "yelp_url": "https://www.yelp.com/raq/axMME38mU9sHuZL8EfZn8w?adjust_creative=dWJeA2crTuyuRlT4LXbwew&utm_campaign=yelp_api_v3&utm_medium=api_v3_business_lookup&utm_source=dWJeA2crTuyuRlT4LXbwew#popup%3Araq", "phone": "", "categories": [{"alias": "coffee", "title": "Coffee & Tea"}], "street_address": "53 Bloor St E", "city": "Toronto", "postal_code": "M4W 1A9", "country": "CA", "province": "ON", "latitude": 43.67034, "longitude": -79.38526, "url": null}, {"id": "4cg0UV1tEznGsEGsutZZHg", "name": "Arvo Coffee", "image_url": "https://s3-media2.fl.yelpcdn.com/bphoto/4wwQeNrQFaTSwFWpRf_EtA/o.jpg", "yelp_url": "https://www.yelp.com/raq/4cg0UV1tEznGsEGsutZZHg?adjust_creative=dWJeA2crTuyuRlT4LXbwew&utm_campaign=yelp_api_v3&utm_medium=api_v3_business_lookup&utm_source=dWJeA2crTuyuRlT4LXbwew#popup%3Araq", "phone": "+16473522786", "categories": [{"alias": "coffee", "title": "Coffee & Tea"}], "street_address": "17 Gristmill Lane", "city": "Toronto", "postal_code": "M5A 3C4", "country": "CA", "province": "ON", "latitude": 43.64991, "longitude": -79.3612, "price": "$$", "url": "arvocoffee.com"}, {"id": "vecgLcPg4ba-DdP6C_p_RA", "name": "Dark Horse Espresso Bar", "image_url": "https://s3-media3.fl.yelpcdn.com/bphoto/bcIHHxtNLd78WRUxiE9dVQ/o.jpg", "yelp_url": "https://www.yelp.com/biz/dark-horse-espresso-bar-toronto-2?adjust_creative=dWJeA2crTuyuRlT4LXbwew&utm_campaign=yelp_api_v3&utm_medium=api_v3_business_lookup&utm_source=dWJeA2crTuyuRlT4LXbwew", "phone": "+16477487700", "categories": [{"alias": "coffee", "title": "Coffee & Tea"}], "street_address": "125 John Street", "city": "Toronto", "postal_code": "M5H 1Y2", "country": "CA", "province": "ON", "latitude": 43.648362, "longitude": -79.390276, "price": "$$", "url": "darkhorseespresso.com"}, {"id": "CHicQ3i8iSGm08xBiOlrwQ", "name": "Mos Mos", "image_url": "https://s3-media2.fl.yelpcdn.com/bphoto/5atIyzM3qKxDxStTeoau0Q/o.jpg", "yelp_url": "https://www.yelp.com/biz/mos-mos-toronto-2?adjust_creative=dWJeA2crTuyuRlT4LXbwew&utm_campaign=yelp_api_v3&utm_medium=api_v3_business_lookup&utm_source=dWJeA2crTuyuRlT4LXbwew", "phone": "", "categories": [{"alias": "coffee", "title": "Coffee & Tea"}], "street_address": "88 Queens Quay W", "city": "Toronto", "postal_code": "M5J", "country": "CA", "province": "ON", "latitude": 43.6416431677572, "longitude": -79.3775742239245, "price": "$$", "url": null}, {"id": "tf4FoM-A_I469qTUbLZs5Q", "name": "M Square Coffee Co", "image_url": "https://s3-media3.fl.yelpcdn.com/bphoto/g-wbF33fj0ejL8AvNcfNkA/o.jpg", "yelp_url": "https://www.yelp.com/raq/tf4FoM-A_I469qTUbLZs5Q?adjust_creative=dWJeA2crTuyuRlT4LXbwew&utm_campaign=yelp_api_v3&utm_medium=api_v3_business_lookup&utm_source=dWJeA2crTuyuRlT4LXbwew#popup%3Araq", "phone": "+16473506444", "categories": [{"alias": "cafes", "title": "Cafes"}], "street_address": "123 Queen Street W", "city": "Toronto", "postal_code": "M5H 2M9", "country": "CA", "province": "ON", "latitude": 43.651134, "longitude": -79.383527, "price": "$", "url": "msquarecoffeeco.com"}, {"id": "q0tMKr-hzS4UT0RArdZfzQ", "name": "Rooster Coffee House", "image_url": "https://s3-media4.fl.yelpcdn.com/bphoto/dKYF0vUTgux-cGeHPi8U1g/o.jpg", "yelp_url": "https://www.yelp.com/biz/rooster-coffee-house-toronto?adjust_creative=dWJeA2crTuyuRlT4LXbwew&utm_campaign=yelp_api_v3&utm_medium=api_v3_business_lookup&utm_source=dWJeA2crTuyuRlT4LXbwew", "phone": "+14169951530", "categories": [{"alias": "coffee", "title": "Coffee & Tea"}], "street_address": "479 Broadview Avenue", "city": "Toronto", "postal_code": "M4K 2N4", "country": "CA", "province": "ON", "latitude": 43.6691999, "longitude": -79.3527, "price": "$$", "url": "roostercoffeehouse.com"}, {"id": "kyJaqGToSG0p9w5GmnLLCQ", "name": "Hailed Coffee", "image_url": "https://s3-media4.fl.yelpcdn.com/bphoto/hnN2oFQm2xy-akzwesql_A/o.jpg", "yelp_url": "https://www.yelp.com/raq/kyJaqGToSG0p9w5GmnLLCQ?adjust_creative=dWJeA2crTuyuRlT4LXbwew&utm_campaign=yelp_api_v3&utm_medium=api_v3_business_lookup&utm_source=dWJeA2crTuyuRlT4LXbwew#popup%3Araq", "phone": "+16473524040", "categories": [{"alias": "coffee", "title": "Coffee & Tea"}, {"alias": "desserts", "title": "Desserts"}], "street_address": "801 Gerrard Street E", "city": "Toronto", "postal_code": "M4M 1Y5", "country": "CA", "province": "ON", "latitude": 43.66688, "longitude": -79.34538, "price": "$$", "url": "hailed.ca"}, {"id": "aEnoF_79jQE83s-I756n8w", "name": "Thor Espresso Bar", "image_url": "https://s3-media3.fl.yelpcdn.com/bphoto/Bll5sGf-MUUAfbZGIwbbXQ/o.jpg", "yelp_url": "https://www.yelp.com/biz/thor-espresso-bar-toronto?adjust_creative=dWJeA2crTuyuRlT4LXbwew&utm_campaign=yelp_api_v3&utm_medium=api_v3_business_lookup&utm_source=dWJeA2crTuyuRlT4LXbwew", "phone": "+16473506346", "categories": [{"alias": "cafes", "title": "Cafes"}], "street_address": "35 Bathurst Street", "city": "Toronto", "postal_code": "M5V 2P2", "country": "CA", "province": "ON", "latitude": 43.642070221878, "longitude": -79.401691306928, "price": "$", "url": "thorespressobar.com"}, {"id": "Xhf3nW6UahoVpRMkVUlnJA", "name": "Te Aro", "image_url": "https://s3-media2.fl.yelpcdn.com/bphoto/CdJNW3lX61SxxIvF-RHYMg/o.jpg", "yelp_url": "https://www.yelp.com/biz/te-aro-toronto?adjust_creative=dWJeA2crTuyuRlT4LXbwew&utm_campaign=yelp_api_v3&utm_medium=api_v3_business_lookup&utm_source=dWJeA2crTuyuRlT4LXbwew", "phone": "+14164652006", "categories": [{"alias": "coffee", "title": "Coffee & Tea"}, {"alias": "cafes", "title": "Cafes"}], "street_address": "983 Queen Street E", "city": "Toronto", "postal_code": "M4M 1K2", "country": "CA", "province": "ON", "latitude": 43.661339579532, "longitude": -79.338313038509, "price": "$", "url": null}, {"id": "q3Gmd1TwkivU6H1p0OqxCQ", "name": "Balzac's Market Street", "image_url": "https://s3-media1.fl.yelpcdn.com/bphoto/qYIlMD3hR96wsp7Kcr_KGA/o.jpg", "yelp_url": "https://www.yelp.com/biz/balzacs-market-street-toronto?adjust_creative=dWJeA2crTuyuRlT4LXbwew&utm_campaign=yelp_api_v3&utm_medium=api_v3_business_lookup&utm_source=dWJeA2crTuyuRlT4LXbwew", "phone": "+14163684949", "categories": [{"alias": "coffeeroasteries", "title": "Coffee Roasteries"}, {"alias": "coffee", "title": "Coffee & Tea"}, {"alias": "venues", "title": "Venues & Event Spaces"}], "street_address": "10 Market Street", "city": "Toronto", "postal_code": "M5E 1M6", "country": "CA", "province": "ON", "latitude": 43.64837, "longitude": -79.37213, "price": "$", "url": "shop.balzacs.com"}, {"id": "l1SGwoX-qkd17XUNkrvskQ", "name": "Goldstruck Coffee", "image_url": "https://s3-media2.fl.yelpcdn.com/bphoto/7aH8oRBJVrWNhXfMrjWpxg/o.jpg", "yelp_url": "https://www.yelp.com/biz/goldstruck-coffee-toronto?adjust_creative=dWJeA2crTuyuRlT4LXbwew&utm_campaign=yelp_api_v3&utm_medium=api_v3_business_lookup&utm_source=dWJeA2crTuyuRlT4LXbwew", "phone": "", "categories": [{"alias": "coffee", "title": "Coffee & Tea"}], "street_address": "130 Cumberland Street", "city": "Toronto", "postal_code": "M5R", "country": "CA", "province": "ON", "latitude": 43.6702819, "longitude": -79.3923225, "price": "$", "url": null}, {"id": "5Illcs9aBYZlaJp9BiGjng", "name": "Jimmy's Coffee", "image_url": "https://s3-media3.fl.yelpcdn.com/bphoto/pC072jFBo2Xu2ayJcrUFtQ/o.jpg", "yelp_url": "https://www.yelp.com/raq/5Illcs9aBYZlaJp9BiGjng?adjust_creative=dWJeA2crTuyuRlT4LXbwew&utm_campaign=yelp_api_v3&utm_medium=api_v3_business_lookup&utm_source=dWJeA2crTuyuRlT4LXbwew#popup%3Araq", "phone": "+14169012289", "categories": [{"alias": "coffee", "title": "Coffee & Tea"}], "street_address": "107 Portland Street", "city": "Toronto", "postal_code": "M5V 2N3", "country": "CA", "province": "ON", "latitude": 43.645227986235, "longitude": -79.400247322863, "price": "$$", "url": "jimmyscoffee.ca"}, {"id": "bDM3LtDxvRds5m4HCTc9HQ", "name": "Cocoon Coffee", "image_url": "https://s3-media3.fl.yelpcdn.com/bphoto/B4yVGEHu0h51jhGS6L0IxA/o.jpg", "yelp_url": "https://www.yelp.com/raq/bDM3LtDxvRds5m4HCTc9HQ?adjust_creative=dWJeA2crTuyuRlT4LXbwew&utm_campaign=yelp_api_v3&utm_medium=api_v3_business_lookup&utm_source=dWJeA2crTuyuRlT4LXbwew#popup%3Araq", "phone": "+14168225798", "categories": [{"alias": "coffee", "title": "Coffee & Tea"}], "street_address": "855 Wilson Avenue", "city": "Toronto", "postal_code": "M3K 1E2", "country": "CA", "province": "ON", "latitude": 43.73079, "longitude": -79.46512, "url": "cocooncoffeebar.com"}, {"id": "8bib49DjADw9GxQJNydafg", "name": "Aroma Espresso Bar", "image_url": "https://s3-media1.fl.yelpcdn.com/bphoto/IMtgHFO6JUVNf5qOJ9qt6g/o.jpg", "yelp_url": "https://www.yelp.com/biz/aroma-espresso-bar-toronto-43?adjust_creative=dWJeA2crTuyuRlT4LXbwew&utm_campaign=yelp_api_v3&utm_medium=api_v3_business_lookup&utm_source=dWJeA2crTuyuRlT4LXbwew", "phone": "+16473478300", "categories": [{"alias": "coffee", "title": "Coffee & Tea"}], "street_address": "88 Queens Quay W", "city": "Toronto", "postal_code": "M5J 0B8", "country": "CA", "province": "ON", "latitude": 43.64085, "longitude": -79.37871, "price": "$$", "url": "aroma.ca"}, {"id": "R7KTG4vKcSOHlYaaLxHGUg", "name": "Elchi Chai Shop", "image_url": "https://s3-media3.fl.yelpcdn.com/bphoto/D5eTpXGgTWnhiqY48ViPzA/o.jpg", "yelp_url": "https://www.yelp.com/biz/elchi-chai-shop-toronto?adjust_creative=dWJeA2crTuyuRlT4LXbwew&utm_campaign=yelp_api_v3&utm_medium=api_v3_business_lookup&utm_source=dWJeA2crTuyuRlT4LXbwew", "phone": "+14165517864", "categories": [{"alias": "coffee", "title": "Coffee & Tea"}], "street_address": "130 Harbord Street", "city": "Toronto", "postal_code": "M5S 1G8", "country": "CA", "province": "ON", "latitude": 43.6626622754298, "longitude": -79.4045799081338, "price": "$$", "url": "elchichaishop.com"}, {"id": "mw69E3vLAbN-ra92f5Y8ZQ", "name": "Black Cat Espresso Bar", "image_url": "https://s3-media2.fl.yelpcdn.com/bphoto/XhdIioqlijwvNyxEFR8jgw/o.jpg", "yelp_url": "https://www.yelp.com/biz/black-cat-espresso-bar-toronto?adjust_creative=dWJeA2crTuyuRlT4LXbwew&utm_campaign=yelp_api_v3&utm_medium=api_v3_business_lookup&utm_source=dWJeA2crTuyuRlT4LXbwew", "phone": "+16473859929", "categories": [{"alias": "coffee", "title": "Coffee & Tea"}, {"alias": "sandwiches", "title": "Sandwiches"}, {"alias": "icecream", "title": "Ice Cream & Frozen Yogurt"}], "street_address": "1104 College Street", "city": "Toronto", "postal_code": "M6H 1B3", "country": "CA", "province": "ON", "latitude": 43.65278, "longitude": -79.43235, "price": "$", "url": "blackcatespressobar.com"}, {"id": "kBt12nJhnruF9NQ36vRSZA", "name": "Marvel Coffee Company", "image_url": "https://s3-media1.fl.yelpcdn.com/bphoto/Brsys0Eahlk7Funs-U13oQ/o.jpg", "yelp_url": "https://www.yelp.com/biz/marvel-coffee-company-toronto-2?adjust_creative=dWJeA2crTuyuRlT4LXbwew&utm_campaign=yelp_api_v3&utm_medium=api_v3_business_lookup&utm_source=dWJeA2crTuyuRlT4LXbwew", "phone": "+14164652606", "categories": [{"alias": "coffee", "title": "Coffee & Tea"}], "street_address": "792 Carlaw Avenue", "city": "Toronto", "postal_code": "M4K 1P8", "country": "CA", "province": "ON", "latitude": 43.67855, "longitude": -79.34763, "price": "$", "url": null}, {"id": "tOl5TmyPIedIfjxN6jASTQ", "name": "The Good Neighbour", "image_url": "https://s3-media4.fl.yelpcdn.com/bphoto/6Vnq7a9Cng3EyX_sXP4uHQ/o.jpg", "yelp_url": "https://www.yelp.com/biz/the-good-neighbour-toronto-2?adjust_creative=dWJeA2crTuyuRlT4LXbwew&utm_campaign=yelp_api_v3&utm_medium=api_v3_business_lookup&utm_source=dWJeA2crTuyuRlT4LXbwew", "phone": "", "categories": [{"alias": "cafes", "title": "Cafes"}], "street_address": "678 Bloor Street W", "city": "Toronto", "postal_code": "M6G 1L2", "country": "CA", "province": "ON", "latitude": 43.6641199, "longitude": -79.41667, "price": "$$", "url": null}, {"id": "AYFIMkpCeFxy3SsbAuOhww", "name": "ING Direct Caf\u00e9", "image_url": "https://s3-media3.fl.yelpcdn.com/bphoto/cBqKSEHVCGmLYB6lgC1dmw/o.jpg", "yelp_url": "https://www.yelp.com/biz/ing-direct-caf%C3%A9-toronto-2?adjust_creative=dWJeA2crTuyuRlT4LXbwew&utm_campaign=yelp_api_v3&utm_medium=api_v3_business_lookup&utm_source=dWJeA2crTuyuRlT4LXbwew", "phone": "+14165061837", "categories": [{"alias": "coffee", "title": "Coffee & Tea"}], "street_address": "221 Yonge Street", "city": "Toronto", "postal_code": "M5J 2X1", "country": "CA", "province": "ON", "latitude": 43.654127, "longitude": -79.379574, "price": "$", "url": null}, {"id": "OURoudNtFXyd7RTtl5ASKg", "name": "Caf\u00e9 Pamenar", "image_url": "https://s3-media2.fl.yelpcdn.com/bphoto/PfyaIBhA0oRqKVlbmxIbCQ/o.jpg", "yelp_url": "https://www.yelp.com/biz/caf%C3%A9-pamenar-toronto-3?adjust_creative=dWJeA2crTuyuRlT4LXbwew&utm_campaign=yelp_api_v3&utm_medium=api_v3_business_lookup&utm_source=dWJeA2crTuyuRlT4LXbwew", "phone": "+16473523627", "categories": [{"alias": "coffee", "title": "Coffee & Tea"}, {"alias": "beerbar", "title": "Beer Bar"}, {"alias": "cocktailbars", "title": "Cocktail Bars"}], "street_address": "307 Augusta Avenue", "city": "Toronto", "postal_code": "M5T 2M2", "country": "CA", "province": "ON", "latitude": 43.6566765, "longitude": -79.4027438, "price": "$$", "url": "cafepamenar.com"}, {"id": "k0IDAMNDKKzvluoAb2Y4ig", "name": "Chaiwala", "image_url": "https://s3-media2.fl.yelpcdn.com/bphoto/-GB6m-mF8ZWUBkqLeNk89w/o.jpg", "yelp_url": "https://www.yelp.com/biz/chaiwala-toronto-2?adjust_creative=dWJeA2crTuyuRlT4LXbwew&utm_campaign=yelp_api_v3&utm_medium=api_v3_business_lookup&utm_source=dWJeA2crTuyuRlT4LXbwew", "phone": "+14166682058", "categories": [{"alias": "coffee", "title": "Coffee & Tea"}], "street_address": "100 Bridgeland Avenue", "city": "Toronto", "postal_code": "M6A 1Z4", "country": "CA", "province": "ON", "latitude": 43.7260538, "longitude": -79.4618298, "url": "chaiwalachai.com"}, {"id": "Ykn6eHLY8vPHuUH7UQrvxw", "name": "La Barista Caf\u00e9", "image_url": "https://s3-media1.fl.yelpcdn.com/bphoto/j7ztZR4tRgLLoQJtV3VvNQ/o.jpg", "yelp_url": "https://www.yelp.com/biz/la-barista-caf%C3%A9-toronto-2?adjust_creative=dWJeA2crTuyuRlT4LXbwew&utm_campaign=yelp_api_v3&utm_medium=api_v3_business_lookup&utm_source=dWJeA2crTuyuRlT4LXbwew", "phone": "+14169726420", "categories": [{"alias": "coffee", "title": "Coffee & Tea"}, {"alias": "bakeries", "title": "Bakeries"}], "street_address": "22 St Clair Avenue E", "city": "Toronto", "postal_code": "M4T", "country": "CA", "province": "ON", "latitude": 43.68842, "longitude": -79.39351, "price": "$", "url": null}, {"id": "eB67Ak5iop5pqzKhXRzECQ", "name": "Livelihood Cafe", "image_url": "https://s3-media3.fl.yelpcdn.com/bphoto/6KmdaQqqVJUKfCQ78KqUbQ/o.jpg", "yelp_url": "https://www.yelp.com/raq/eB67Ak5iop5pqzKhXRzECQ?adjust_creative=dWJeA2crTuyuRlT4LXbwew&utm_campaign=yelp_api_v3&utm_medium=api_v3_business_lookup&utm_source=dWJeA2crTuyuRlT4LXbwew#popup%3Araq", "phone": "+16476875187", "categories": [{"alias": "coffee", "title": "Coffee & Tea"}], "street_address": "254 Augusta Avenue", "city": "Toronto", "postal_code": "M5T 2L7", "country": "CA", "province": "ON", "latitude": 43.65575, "longitude": -79.40276, "price": "$", "url": "livelihoodproject.org"}, {"id": "-WKQHbVgTNQVzCbVPDeMlg", "name": "Mon K Patisserie", "image_url": "https://s3-media2.fl.yelpcdn.com/bphoto/V2YOVsJ0J8Y7y7es9NvluA/o.jpg", "yelp_url": "https://www.yelp.com/biz/mon-k-patisserie-toronto?adjust_creative=dWJeA2crTuyuRlT4LXbwew&utm_campaign=yelp_api_v3&utm_medium=api_v3_business_lookup&utm_source=dWJeA2crTuyuRlT4LXbwew", "phone": "+14166968181", "categories": [{"alias": "coffee", "title": "Coffee & Tea"}, {"alias": "bakeries", "title": "Bakeries"}], "street_address": "1040 Coxwell Avenue", "city": "Toronto", "postal_code": "M4C 3G5", "country": "CA", "province": "ON", "latitude": 43.6969562, "longitude": -79.3293695, "price": "$$", "url": "monkpatisserie.ca"}, {"id": "uPJvuF2lE_1GWiuHvlRBEA", "name": "White Squirrel Coffee Shop", "image_url": "https://s3-media2.fl.yelpcdn.com/bphoto/R9Ix3SeklUR9epFp9soNlw/o.jpg", "yelp_url": "https://www.yelp.com/biz/white-squirrel-coffee-shop-toronto?adjust_creative=dWJeA2crTuyuRlT4LXbwew&utm_campaign=yelp_api_v3&utm_medium=api_v3_business_lookup&utm_source=dWJeA2crTuyuRlT4LXbwew", "phone": "+16474284478", "categories": [{"alias": "coffee", "title": "Coffee & Tea"}, {"alias": "bakeries", "title": "Bakeries"}, {"alias": "icecream", "title": "Ice Cream & Frozen Yogurt"}], "street_address": "907 Queen Street West", "city": "Toronto", "postal_code": "M6J 1G5", "country": "CA", "province": "ON", "latitude": 43.64535, "longitude": -79.41234, "price": "$", "url": "whitesquirrelcoffee.com"}, {"id": "pzIXxUDaYVUFwDq6dUf1bQ", "name": "The Coffee Bouquets", "image_url": "https://s3-media2.fl.yelpcdn.com/bphoto/o9ddQNvMjoLDC5W8MEED_w/o.jpg", "yelp_url": "https://www.yelp.com/raq/pzIXxUDaYVUFwDq6dUf1bQ?adjust_creative=dWJeA2crTuyuRlT4LXbwew&utm_campaign=yelp_api_v3&utm_medium=api_v3_business_lookup&utm_source=dWJeA2crTuyuRlT4LXbwew#popup%3Araq", "phone": "+16475292326", "categories": [{"alias": "cafes", "title": "Cafes"}, {"alias": "coffee", "title": "Coffee & Tea"}, {"alias": "coffeeteasupplies", "title": "Coffee & Tea Supplies"}], "street_address": "7 Riverview Gardens", "city": "Toronto", "postal_code": "M6S 4E4", "country": "CA", "province": "ON", "latitude": 43.6488106048734, "longitude": -79.485970325768, "price": "$", "url": "thecoffeebouquets.com"}, {"id": "AoItX6upESFG_EowRa05eg", "name": "Ave Maria Latin Caf\u00e9", "image_url": "https://s3-media2.fl.yelpcdn.com/bphoto/w3zzZueYMrWYuuWW8F9kcQ/o.jpg", "yelp_url": "https://www.yelp.com/biz/ave-maria-latin-caf%C3%A9-toronto?adjust_creative=dWJeA2crTuyuRlT4LXbwew&utm_campaign=yelp_api_v3&utm_medium=api_v3_business_lookup&utm_source=dWJeA2crTuyuRlT4LXbwew", "phone": "+16474798824", "categories": [{"alias": "coffee", "title": "Coffee & Tea"}, {"alias": "latin", "title": "Latin American"}], "street_address": "631 Bloor Street W", "city": "Toronto", "postal_code": "M6G 1K8", "country": "CA", "province": "ON", "latitude": 43.6643105, "longitude": -79.4143295, "price": "$", "url": "avemarialatincafe.com"}, {"id": "79Ke-qt0ZcO_JMEtRbl3MA", "name": "Coffee Public", "image_url": "https://s3-media1.fl.yelpcdn.com/bphoto/wVTYAC1bTe_VMRXVYk8U9Q/o.jpg", "yelp_url": "https://www.yelp.com/biz/coffee-public-toronto-5?adjust_creative=dWJeA2crTuyuRlT4LXbwew&utm_campaign=yelp_api_v3&utm_medium=api_v3_business_lookup&utm_source=dWJeA2crTuyuRlT4LXbwew", "phone": "+16473488779", "categories": [{"alias": "coffee", "title": "Coffee & Tea"}], "street_address": "800 Bay Street", "city": "Toronto", "postal_code": "M5S 3A9", "country": "CA", "province": "ON", "latitude": 43.6610158318412, "longitude": -79.3861415066609, "price": "$", "url": null}, {"id": "3utUsvqVVbTuz8AdSxXOyQ", "name": "Slanted Door", "image_url": "https://s3-media2.fl.yelpcdn.com/bphoto/fk4zCez13wm3MIKxWY1qhg/o.jpg", "yelp_url": "https://www.yelp.com/biz/slanted-door-toronto?adjust_creative=dWJeA2crTuyuRlT4LXbwew&utm_campaign=yelp_api_v3&utm_medium=api_v3_business_lookup&utm_source=dWJeA2crTuyuRlT4LXbwew", "phone": "+16473589888", "categories": [{"alias": "cafes", "title": "Cafes"}, {"alias": "galleries", "title": "Art Galleries"}, {"alias": "lounges", "title": "Lounges"}], "street_address": "442 Bloor Street W", "city": "Toronto", "postal_code": "M5S 1X8", "country": "CA", "province": "ON", "latitude": 43.66585, "longitude": -79.40892, "price": "$", "url": "slanteddoor.ca"}, {"id": "fe6YW5wLAeWQBATPf494DQ", "name": "Music Garden Cafe", "image_url": "https://s3-media3.fl.yelpcdn.com/bphoto/hwVhfmr-F9w2FsKPy_jPrg/o.jpg", "yelp_url": "https://www.yelp.com/biz/music-garden-cafe-toronto?adjust_creative=dWJeA2crTuyuRlT4LXbwew&utm_campaign=yelp_api_v3&utm_medium=api_v3_business_lookup&utm_source=dWJeA2crTuyuRlT4LXbwew", "phone": "+14168274873", "categories": [{"alias": "coffee", "title": "Coffee & Tea"}, {"alias": "desserts", "title": "Desserts"}, {"alias": "cafes", "title": "Cafes"}], "street_address": "466 Queens Quay W", "city": "Toronto", "postal_code": "M5V 3Y2", "country": "CA", "province": "ON", "latitude": 43.63765, "longitude": -79.39306, "price": "$$", "url": null}, {"id": "orFWQlzMbGzkP8GgnDaaYQ", "name": "The Black Canary Espresso Bar", "image_url": "https://s3-media4.fl.yelpcdn.com/bphoto/3nxQKtu4WF90Qiz_wP2MkQ/o.jpg", "yelp_url": "https://www.yelp.com/raq/orFWQlzMbGzkP8GgnDaaYQ?adjust_creative=dWJeA2crTuyuRlT4LXbwew&utm_campaign=yelp_api_v3&utm_medium=api_v3_business_lookup&utm_source=dWJeA2crTuyuRlT4LXbwew#popup%3Araq", "phone": "+14163017633", "categories": [{"alias": "coffee", "title": "Coffee & Tea"}], "street_address": "61 Sherbourne Street", "city": "Toronto", "postal_code": "M5A 2P8", "country": "CA", "province": "ON", "latitude": 43.6518898, "longitude": -79.368187, "price": "$", "url": null}, {"id": "vf7-DE-Fgjy--zznJ0XzEA", "name": "Coppaccino Cafe", "image_url": "https://s3-media3.fl.yelpcdn.com/bphoto/Qi_DyrBSeC3qxoRL5WuxwQ/o.jpg", "yelp_url": "https://www.yelp.com/biz/coppaccino-cafe-toronto?adjust_creative=dWJeA2crTuyuRlT4LXbwew&utm_campaign=yelp_api_v3&utm_medium=api_v3_business_lookup&utm_source=dWJeA2crTuyuRlT4LXbwew", "phone": "", "categories": [{"alias": "cafes", "title": "Cafes"}, {"alias": "coffee", "title": "Coffee & Tea"}], "street_address": "1 York Street", "city": "Toronto", "postal_code": "M5J 2L9", "country": "CA", "province": "ON", "latitude": 43.6412676824746, "longitude": -79.3804803863168, "url": null}, {"id": "l2J-R5MjzFTgj06dkSoyQg", "name": "Meow Cat Cafe", "image_url": "https://s3-media1.fl.yelpcdn.com/bphoto/0NWgjfQTFSjkcMkDkU0Flw/o.jpg", "yelp_url": "https://www.yelp.com/biz/meow-cat-cafe-toronto-2?adjust_creative=dWJeA2crTuyuRlT4LXbwew&utm_campaign=yelp_api_v3&utm_medium=api_v3_business_lookup&utm_source=dWJeA2crTuyuRlT4LXbwew", "phone": "+16475606272", "categories": [{"alias": "coffee", "title": "Coffee & Tea"}], "street_address": "556 Mount Pleasant Road", "city": "Toronto", "postal_code": "M4S 2M6", "country": "CA", "province": "ON", "latitude": 43.70287, "longitude": -79.3882, "price": "$", "url": "meowcatcafe.blogspot.ca"}, {"id": "qXFjkI_L3Ws3diveYocNFg", "name": "Coffee Lunar", "image_url": "https://s3-media2.fl.yelpcdn.com/bphoto/B7OA3_mTyQ0KBX5Qc8T46g/o.jpg", "yelp_url": "https://www.yelp.com/biz/coffee-lunar-toronto?adjust_creative=dWJeA2crTuyuRlT4LXbwew&utm_campaign=yelp_api_v3&utm_medium=api_v3_business_lookup&utm_source=dWJeA2crTuyuRlT4LXbwew", "phone": "", "categories": [{"alias": "coffee", "title": "Coffee & Tea"}, {"alias": "desserts", "title": "Desserts"}], "street_address": "920 Yonge Street", "city": "Toronto", "postal_code": "M4W 2J2", "country": "CA", "province": "ON", "latitude": 43.67411, "longitude": -79.389, "url": "coffeelunar.com"}, {"id": "OBPiT9OyFDaTfaLRwfqlSg", "name": "Kitten and the Bear", "image_url": "https://s3-media2.fl.yelpcdn.com/bphoto/1i-z9nIwWaFewU2f9nypVA/o.jpg", "yelp_url": "https://www.yelp.com/biz/kitten-and-the-bear-toronto?adjust_creative=dWJeA2crTuyuRlT4LXbwew&utm_campaign=yelp_api_v3&utm_medium=api_v3_business_lookup&utm_source=dWJeA2crTuyuRlT4LXbwew", "phone": "+16479269711", "categories": [{"alias": "coffee", "title": "Coffee & Tea"}, {"alias": "gourmet", "title": "Specialty Food"}], "street_address": "1414 Dundas Street W", "city": "Toronto", "postal_code": "M6J 1Y5", "country": "CA", "province": "ON", "latitude": 43.6496692, "longitude": -79.4292377, "price": "$$", "url": "kittenandthebear.com"}, {"id": "nrQi8Bh5GwuNDihbPJG5Sw", "name": "Scarlet Door", "image_url": "https://s3-media1.fl.yelpcdn.com/bphoto/dJNWyTj8IthIouFURUytkQ/o.jpg", "yelp_url": "https://www.yelp.com/biz/scarlet-door-toronto?adjust_creative=dWJeA2crTuyuRlT4LXbwew&utm_campaign=yelp_api_v3&utm_medium=api_v3_business_lookup&utm_source=dWJeA2crTuyuRlT4LXbwew", "phone": "+16474754436", "categories": [{"alias": "cafes", "title": "Cafes"}], "street_address": "15 Charles Street E", "city": "Toronto", "postal_code": "M4Y 1S1", "country": "CA", "province": "ON", "latitude": 43.66858, "longitude": -79.38537, "url": "scarletdoorcafe.com"}, {"id": "TuJVTcMHZTf7tP6hBS3gRw", "name": "Louie Craft Coffee", "image_url": "https://s3-media2.fl.yelpcdn.com/bphoto/BMI-HOBzcwQA-sJ68fPaGw/o.jpg", "yelp_url": "https://www.yelp.com/biz/louie-craft-coffee-toronto?adjust_creative=dWJeA2crTuyuRlT4LXbwew&utm_campaign=yelp_api_v3&utm_medium=api_v3_business_lookup&utm_source=dWJeA2crTuyuRlT4LXbwew", "phone": "+14165831627", "categories": [{"alias": "coffee", "title": "Coffee & Tea"}], "street_address": "1187 King Street W", "city": "Toronto", "postal_code": "M6K 3C5", "country": "CA", "province": "ON", "latitude": 43.6392011, "longitude": -79.4255473, "price": "$", "url": "louiecoffee.com"}, {"id": "3KG13qMCNegGT9oIxWAAWw", "name": "Propeller Coffee", "image_url": "https://s3-media1.fl.yelpcdn.com/bphoto/bNRxQJo4V-bZHm_QrANktg/o.jpg", "yelp_url": "https://www.yelp.com/biz/propeller-coffee-toronto?adjust_creative=dWJeA2crTuyuRlT4LXbwew&utm_campaign=yelp_api_v3&utm_medium=api_v3_business_lookup&utm_source=dWJeA2crTuyuRlT4LXbwew", "phone": "+14164793771", "categories": [{"alias": "coffee", "title": "Coffee & Tea"}], "street_address": "50 Wade Avenue", "city": "Toronto", "postal_code": "M6H 3Y5", "country": "CA", "province": "ON", "latitude": 43.65941, "longitude": -79.44484, "price": "$$", "url": "propellercoffee.com"}, {"id": "0iTpgvz5XJzFAo253nIE0g", "name": "The Sidekick", "image_url": "https://s3-media4.fl.yelpcdn.com/bphoto/_eqKg48PDrROvMXeFuUBpw/o.jpg", "yelp_url": "https://www.yelp.com/biz/the-sidekick-toronto?adjust_creative=dWJeA2crTuyuRlT4LXbwew&utm_campaign=yelp_api_v3&utm_medium=api_v3_business_lookup&utm_source=dWJeA2crTuyuRlT4LXbwew", "phone": "+14165461301", "categories": [{"alias": "cafes", "title": "Cafes"}], "street_address": "1374 Queen Street E", "city": "Toronto", "postal_code": "M4L 1C9", "country": "CA", "province": "ON", "latitude": 43.6645889, "longitude": -79.3251114, "price": "$", "url": "thesidekickcomics.com"}, {"id": "DfCuDI8b6rZ4nXl9Zg-eSw", "name": "de Mello Palheta", "image_url": "https://s3-media2.fl.yelpcdn.com/bphoto/bm373NMqQpPlck3OlNbZlw/o.jpg", "yelp_url": "https://www.yelp.com/biz/de-mello-palheta-toronto-2?adjust_creative=dWJeA2crTuyuRlT4LXbwew&utm_campaign=yelp_api_v3&utm_medium=api_v3_business_lookup&utm_source=dWJeA2crTuyuRlT4LXbwew", "phone": "+16477483633", "categories": [{"alias": "coffee", "title": "Coffee & Tea"}, {"alias": "bakeries", "title": "Bakeries"}, {"alias": "desserts", "title": "Desserts"}], "street_address": "2489 Yonge Street", "city": "Toronto", "postal_code": "M4P 2H6", "country": "CA", "province": "ON", "latitude": 43.71187, "longitude": -79.3991999, "price": "$$", "url": "hellodemello.com"}, {"id": "X-UimDycyh6GjJZbLHPOlw", "name": "Milky\u2019s", "image_url": "https://s3-media3.fl.yelpcdn.com/bphoto/r53Sz57LuC3ycKM_0XVvfw/o.jpg", "yelp_url": "https://www.yelp.com/biz/milky-s-toronto?adjust_creative=dWJeA2crTuyuRlT4LXbwew&utm_campaign=yelp_api_v3&utm_medium=api_v3_business_lookup&utm_source=dWJeA2crTuyuRlT4LXbwew", "phone": "+16474082442", "categories": [{"alias": "coffee", "title": "Coffee & Tea"}], "street_address": "760 Dundas Street W", "city": "Toronto", "postal_code": "M6J 1T8", "country": "CA", "province": "ON", "latitude": 43.65227, "longitude": -79.40686, "url": "milkys.ca"}, {"id": "eXS5YBwzRnFUbGlTvlx1rA", "name": "The Mad Bean", "image_url": "https://s3-media1.fl.yelpcdn.com/bphoto/t1UrjMSqrvjDrvD0DNWvQw/o.jpg", "yelp_url": "https://www.yelp.com/biz/the-mad-bean-toronto?adjust_creative=dWJeA2crTuyuRlT4LXbwew&utm_campaign=yelp_api_v3&utm_medium=api_v3_business_lookup&utm_source=dWJeA2crTuyuRlT4LXbwew", "phone": "+16472352456", "categories": [{"alias": "coffee", "title": "Coffee & Tea"}], "street_address": "519 Eglinton Avenue W", "city": "Toronto", "postal_code": "M5N 1B1", "country": "CA", "province": "ON", "latitude": 43.7033, "longitude": -79.41371, "price": "$$", "url": "themadbean.com"}, {"id": "j29tuUdrfaxmGjwxHdHZPA", "name": "Tango Palace Coffee Company", "image_url": "https://s3-media3.fl.yelpcdn.com/bphoto/h3nhLm_PiNzjWZh4XX29GA/o.jpg", "yelp_url": "https://www.yelp.com/biz/tango-palace-coffee-company-toronto?adjust_creative=dWJeA2crTuyuRlT4LXbwew&utm_campaign=yelp_api_v3&utm_medium=api_v3_business_lookup&utm_source=dWJeA2crTuyuRlT4LXbwew", "phone": "+14164658085", "categories": [{"alias": "coffee", "title": "Coffee & Tea"}], "street_address": "1156 Queen Street E", "city": "Toronto", "postal_code": "M4M 1L2", "country": "CA", "province": "ON", "latitude": 43.662611382595, "longitude": -79.333771127529, "price": "$", "url": null}]